{"cities":[{"latitude":45.25,"longitude":-75.4,"population":934.0,"square":2790.0,"Latitude":45.25,"Longitude":-75.4,"Name":"Оттава","Population":934.0,"Square":2790.0},{"latitude":52.3127,"longitude":13.2437,"population":3644.0,"square":891.0,"Latitude":52.3127,"Longitude":13.2437,"Name":"Берлін","Population":3644.0,"Square":891.0},{"latitude":50.27,"longitude":30.3125,"population":2884.0,"square":839.0,"Latitude":50.27,"Longitude":30.3125,"Name":"Київ","Population":2884.0,"Square":839.0},{"latitude":59.5445,"longitude":10.4445,"population":681.067,"square":454.0,"Latitude":59.5445,"Longitude":10.4445,"Name":"Осло","Population":681.067,"Square":454.0},{"latitude":50.1,"longitude":36.1343,"population":1419.0,"square":350.0,"Latitude":50.1,"Longitude":36.1343,"Name":"Харків","Population":1419.0,"Square":350.0},{"latitude":59.1957,"longitude":18.0353,"population":974.073,"square":188.0,"Latitude":59.1957,"Longitude":18.0353,"Name":"Стокгольм","Population":974.073,"Square":188.0},{"latitude":38.53,"longitude":-77.02,"population":601.0,"square":177.0,"Latitude":38.53,"Longitude":-77.02,"Name":"Вашингтон","Population":601.0,"Square":177.0},{"latitude":48.85341,"longitude":2.3488,"population":2148.0,"square":105.4,"Latitude":48.85341,"Longitude":2.3488,"Name":"Париж","Population":2148.0,"Square":105.4},{"latitude":49.0036,"longitude":34.0033,"population":286.0,"square":103.0,"Latitude":49.0036,"Longitude":34.0033,"Name":"Полтава","Population":286.0,"Square":103.0}],"countries":[{"form":"Монархія","population":37.6,"square":9984.6,"Capital":"Оттава","Form":"Монархія","Name":"Канада","Population":37.6,"Square":9984.6},{"form":"Республіка","population":83.0,"square":357.0,"Capital":"Берлін","Form":"Республіка","Name":"Німеччина","Population":83.0,"Square":357.0},{"form":"Монархія","population":5.367,"square":385.207,"Capital":"Осло","Form":"Монархія","Name":"Норвегія","Population":5.367,"Square":385.207},{"form":"Республіка","population":328.9,"square":9519.0,"Capital":"Вашингтон","Form":"Республіка","Name":"США","Population":328.9,"Square":9519.0},{"form":"Республіка","population":41.9,"square":603.0,"Capital":"Київ","Form":"Республіка","Name":"Україна","Population":41.9,"Square":603.0},{"form":"Республіка","population":66.99,"square":643.801,"Capital":"Париж","Form":"Республіка","Name":"Франція","Population":66.99,"Square":643.801},{"form":"Монархія","population":10.327,"square":447.435,"Capital":"Стокгольм","Form":"Монархія","Name":"Швеція","Population":10.327,"Square":447.435}],"regions":[{"kind":"Область","country":"Україна","capital":"Харків","population":2.701,"square":31418.0,"Form":"Область","Country":"Україна","Capital":"Харків","Name":"Харківська","Population":2.701,"Square":31418.0},{"kind":"Область","country":"Україна","capital":"Київ","population":1.725,"square":28121.0,"Form":"Область","Country":"Україна","Capital":"Київ","Name":"Київська","Population":1.725,"Square":28121.0},{"kind":"Область","country":"Україна","capital":"Полтава","population":1.439,"square":28750.0,"Form":"Область","Country":"Україна","Capital":"Полтава","Name":"Полтавська","Population":1.439,"Square":28750.0}],"continents":[{"density":98.0,"biggest_City":"Шанхай","peak":8848.0,"lowest_point":-400.0,"population":4.618,"square":54760000.0,"Lowest_Point":-400.0,"Peak":8848.0,"Density":98.0,"Biggest_City":"Шанхай","Name":"Євразія","Population":4.618,"Square":54760000.0},{"density":30.0,"biggest_City":"Лагос","peak":5895.0,"lowest_point":-155.0,"population":1.216,"square":30370000.0,"Lowest_Point":-155.0,"Peak":5895.0,"Density":30.0,"Biggest_City":"Лагос","Name":"Африка","Population":1.216,"Square":30370000.0},{"density":23.0,"biggest_City":"Мехіко","peak":6194.0,"lowest_point":-85.0,"population":0.579,"square":24365000.0,"Lowest_Point":-85.0,"Peak":6194.0,"Density":23.0,"Biggest_City":"Мехіко","Name":"Північна Америка","Population":0.579,"Square":24365000.0},{"density":100.0,"biggest_City":"Буенос-Айрес","peak":6972.0,"lowest_point":-42.0,"population":0.4225,"square":17840000.0,"Lowest_Point":-42.0,"Peak":6972.0,"Density":100.0,"Biggest_City":"Буенос-Айрес","Name":"Південна Америка","Population":0.4225,"Square":17840000.0},{"density":0.00028,"biggest_City":"-","peak":4892.0,"lowest_point":-2555.0,"population":4E-06,"square":13900000.0,"Lowest_Point":-2555.0,"Peak":4892.0,"Density":0.00028,"Biggest_City":"-","Name":"Антарктида","Population":4E-06,"Square":13900000.0},{"density":3.0,"biggest_City":"Сідней","peak":2230.0,"lowest_point":-12.0,"population":0.026,"square":7692000.0,"Lowest_Point":-12.0,"Peak":2230.0,"Density":3.0,"Biggest_City":"Сідней","Name":"Австралія","Population":0.026,"Square":7692000.0}]}